eventid,date,country_txt,region_txt,city,latitude,longitude,attacktype1_txt,attacktype2_txt,targtype1_txt,targtype2_txt,targtype3_txt,targsubtype1_txt,targsubtype2_txt,targsubtype3_txt,gname,gsubname,gname2,gsubname2,success,suicide,extended,motive,target1,weaptype1_txt,nkill,nwound,summary
197000000000.0,1970-07-02,Dominican Republic,Central America & Caribbean,Santo Domingo,18.456792,-69.951164,Assassination,,Private Citizens & Property,,,Named Civilian,,,MANO-D,,,,True,False,False,,Julio Guzman,Unknown,1,0,
197000000000.0,,Mexico,North America,Mexico city,19.371887,-99.086624,Hostage Taking (Kidnapping),,Government (Diplomatic),,,"Diplomatic Personnel (outside of embassy, consulate)",,,23rd of September Communist League,,,,True,False,False,,"Nadine Chaval, daughter",Unknown,0,0,
197001000000.0,,Philippines,Southeast Asia,Unknown,15.478598,120.599741,Assassination,,Journalists & Media,,,Radio Journalist/Staff/Facility,,,Unknown,,,,True,False,False,,Employee,Unknown,1,0,
197001000000.0,,Greece,Western Europe,Athens,37.99749,23.762728,Bombing/Explosion,,Government (Diplomatic),,,Embassy/Consulate,,,Unknown,,,,True,False,False,,U.S. Embassy,Explosives,0,0,
197001000000.0,,Japan,East Asia,Fukouka,33.580412,130.396361,Facility/Infrastructure Attack,,Government (Diplomatic),,,Embassy/Consulate,,,Unknown,,,,True,False,False,,U.S. Consulate,Incendiary,0,0,
197001000000.0,1970-01-01,United States,North America,Cairo,37.005105,-89.176269,Armed Assault,,Police,,,"Police Building (headquarters, station, school)",,,Black Nationalists,,,,True,False,False,To protest the Cairo Illinois Police Deparment,Cairo Police Headquarters,Firearms,0,0,"1/1/1970: Unknown African American assailants fired several bullets at police headquarters in Cairo, Illinois, United States.  There were no casualties, however, one bullet narrowly missed several police officers.  This attack took place during heightened racial tensions, including a Black boycott of White-owned businesses, in Cairo Illinois."
197001000000.0,1970-01-02,Uruguay,South America,Montevideo,-34.891151,-56.187214,Assassination,,Police,,,Police Security Forces/Officers,,,Tupamaros (Uruguay),,,,False,False,False,,Juan Maria de Lucah/Chief of Directorate of info. and intell.,Firearms,0,0,
197001000000.0,1970-01-02,United States,North America,Oakland,37.791927,-122.225906,Bombing/Explosion,,Utilities,,,Electricity,,,Unknown,,,,True,False,False,,Edes Substation,Explosives,0,0,"1/2/1970: Unknown perpetrators detonated explosives at the Pacific Gas & Electric Company Edes substation in Oakland, California, United States.  Three transformers were damaged costing an estimated $20,000 to $25,000.  There were no casualties."
197001000000.0,1970-01-02,United States,North America,Madison,43.076592,-89.412488,Facility/Infrastructure Attack,,Military,,,Military Recruiting Station/Academy,,,New Year's Gang,,,,True,False,False,To protest the War in Vietnam and the draft,"R.O.T.C. offices at University of Wisconsin, Madison",Incendiary,0,0,"1/2/1970: Karl Armstrong, a member of the New Years Gang, threw a firebomb at R.O.T.C. offices located within the Old Red Gym at the University of Wisconsin in Madison, Wisconsin, United States.  There were no casualties but the fire caused around $60,000 in damages to the building."
197001000000.0,1970-01-03,United States,North America,Madison,43.07295,-89.386694,Facility/Infrastructure Attack,,Government (General),,,Government Building/Facility/Office,,,New Year's Gang,,,,True,False,False,To protest the War in Vietnam and the draft,Selective Service Headquarters in Madison Wisconsin,Incendiary,0,0,"1/3/1970: Karl Armstrong, a member of the New Years Gang, broke into the University of Wisconsin's Primate Lab and set a fire on the first floor of the building.  Armstrong intended to set fire to the Madison, Wisconsin, United States, Selective Service Headquarters across the street but mistakenly confused the building with the Primate Lab.  The fire caused slight damages and was extinguished almost immediately."
197001000000.0,1970-01-01,United States,North America,Baraboo,43.4685,-89.744299,Bombing/Explosion,,Military,,,Military Barracks/Base/Headquarters/Checkpost,,,"Weather Underground, Weathermen",,,,False,False,False,,Badger Army ammo depot.,Explosives,0,0,
197001000000.0,1970-01-06,United States,North America,Denver,39.758968,-104.876305,Facility/Infrastructure Attack,,Military,,,Military Recruiting Station/Academy,,,Left-Wing Militants,,,,True,False,False,Protest the draft and Vietnam War,"Army Recruiting Station, Denver Colorado",Incendiary,0,0,"1/6/1970: Unknown perpetrators threw a Molotov cocktail into an Army Recruiting Station in Denver, Colorado, United States.  There were no casualties but damages to the station were estimated at $305."
197001000000.0,1970-01-08,Italy,Western Europe,Rome,41.890961,12.490069,Hijacking,,Airports & Aircraft,,,Aircraft (not at an airport),,,Unknown,,,,True,False,False,,Flight 802 Boeing 707,Firearms,0,0,
197001000000.0,1970-01-09,United States,North America,Detroit,42.331685,-83.047924,Facility/Infrastructure Attack,,Government (General),,,Government Building/Facility/Office,,,Left-Wing Militants,,,,True,False,False,,Packard Properties building of Detroit Michigan,Incendiary,0,0,"1/9/1970: Unknown perpetrators set off a firebomb at the Packard Properties building in Detroit, Michigan, United States.  The facility housed federal employees.  The building was damaged but there were no casualties."
197001000000.0,1970-01-09,United States,North America,Rio Piedras,18.386932,-66.061127,Facility/Infrastructure Attack,,Business,,,Retail/Grocery/Bakery,,,Armed Commandos of Liberation,,,,True,False,False,To protest United States owned businesses in Puerto Rico,Baker's Store,Incendiary,0,0,"1/9/1970:  The Armed Commandos of Liberation claimed credit for setting a fire at the Baker's Store in Rio Piedras, Puerto Rico.  There were no casualties but the store was destroyed at a cost of $2,000,000."
197001000000.0,1970-01-10,East Germany (GDR),Eastern Europe,Berlin,52.50153,13.401851,Bombing/Explosion,,Government (General),,,,,,Commune 1,,,,True,False,False,,Jurists Ball (Palais au Frankturm),Explosives,0,0,
197001000000.0,1970-01-11,Ethiopia,Sub-Saharan Africa,Unknown,,,Unknown,,Military,,,"Military Personnel (soldiers, troops, officers, forces)",,,Eritrean Liberation Front,,,,True,False,False,,Soldier,Unknown,1,0,
197001000000.0,1970-01-12,United States,North America,New York City,40.697132,-73.931351,Bombing/Explosion,,Educational Institution,,,School/University/Educational Building,,,Black Nationalists,,,,True,False,False,Suspected motives were to protest the Vietnam War and/or show support for the Black Panther Party and/or show support for the Young Lords.,James Madison High School,Explosives,0,0,"1/12/1970: Unknown perpetrators threw a pipe bomb into the vacant dean's office of James Madison High School in Brooklyn, New York, United States.  There were no casualties but the explosion caused minor damages.  Earlier in the day anti-war and pro-Black Panther statements were discovered painted outside the walls of the school."
197001000000.0,1970-01-12,United States,North America,Rio Grande,18.379998,-65.830948,Bombing/Explosion,,Business,,,Multinational Corporation,,,Strikers,,,,True,False,False,,General Electric factory in Rio Grande Puerto Rico,Explosives,0,0,"1/12/1970: Unknown perpetrators detonated a bomb at a General Electric factory in Rio Grande, Puerto Rico during a strike.  There were no casualties and it is unknown if the factory sustained any damages."
197001000000.0,1970-01-13,United States,North America,Seattle,47.610786,-122.331306,Facility/Infrastructure Attack,,Business,,,Retail/Grocery/Bakery,,,Black Nationalists,,,,True,False,False,Retaliation for the store owner who shot and killed an African American attempting to commit a robbery at his store.,"Fuson's Department Store, Seattle Washington",Incendiary,0,0,"1/13/1970: Unknown perpetrators firebombed Fuson's Department Store in Seattle, Washington, United States.  There were no casualties but the store sustained an estimated $17,000 in damages.  Less than a week earlier, the store owner shot and killed an African American male attempting to rob the store."
197001000000.0,1970-01-14,United States,North America,Champaign,40.116748,-88.23927,Facility/Infrastructure Attack,,Police,,,"Police Building (headquarters, station, school)",,,Black Nationalists,,,,True,False,False,,Champaign Police Department,Incendiary,0,1,"1/14/1970: Suspected Black militants threw two firebombs into the Champaign Police Department in Champaign, Illinois, United States.  The building was damaged and one police officer was severely burned."
197001000000.0,1970-01-15,Uruguay,South America,Montevideo,-34.891151,-56.187214,Armed Assault,,Educational Institution,,,School/University/Educational Building,,,Tupamaros (Uruguay),,,,True,False,False,,"Secondary School, Chemistry Lab",Firearms,0,0,
197001000000.0,1970-01-19,United States,North America,Seattle,47.610786,-122.331306,Bombing/Explosion,,Educational Institution,,,School/University/Educational Building,,,Black Nationalists,,,,True,False,False,The incident took place during disturbances between the Black Student Union and the university.,"Liberal Arts and Garrand buildings, Seattle University",Explosives,0,0,"1/17/1970: Three African Americans were suspected of detonating a bomb on the Seattle University campus in Seattle, Washington, United States.  There were no casualties but the Liberal Arts and Garrand buildings sustained $2,200 in damages."
197001000000.0,1970-01-19,United States,North America,Seattle,47.610786,-122.331306,Bombing/Explosion,,Military,,,Military Recruiting Station/Academy,,,Student Radicals,,,,False,False,False,The incident took place during heightened antiwar sentiments in Seattle Washington.,Air Force R.O.T.C. at the University of Washington,Explosives,0,0,"1/17/1970: Silas and Judith Bissell placed an explosive device in the vicinity of the Air Force R.O.T.C. at the University of Washington campus in Seattle, Washington, United States.  The device was discovered and subsequently disarmed."
197001000000.0,1970-01-19,United States,North America,Jersey City,40.717892,-74.067467,Facility/Infrastructure Attack,Armed Assault,Violent Political Party,,,Party Office/Facility,,,White extremists,,,,True,False,False,Intimidate the Black Panther Party.,Headquarters,Incendiary,0,0,"1/19/1970: Unknown perpetrators ignited a fire at the Black Panther Party headquarters in Jersey City, New Jersey, United States.  Two hours later shots were fired at the building.  There were no casualties but the building sustained minor damages."
197001000000.0,1970-01-20,Guatemala,Central America & Caribbean,Guatemala City,14.622869,-90.529068,Assassination,,Government (Diplomatic),,,Embassy/Consulate,,,Unknown,,,,True,False,False,,"Bodyguard, British Consul",Unknown,1,0,
197001000000.0,1970-01-21,Philippines,Southeast Asia,Quezon City,14.67428,121.057495,Bombing/Explosion,,Government (Diplomatic),,,Embassy/Consulate,,,Unknown,,,,True,False,False,,JUSMAG HQ,Explosives,0,0,
197001000000.0,1970-01-22,Venezuela,South America,Caracas,10.482834,-66.962128,Hostage Taking (Kidnapping),,Business,,,Retail/Grocery/Bakery,,,Armed Forces of National Liberation- Venezuela (FALN),,,,True,False,False,,"Leon Jacobo Taurel, son",Unknown,0,0,
197001000000.0,1970-01-22,United States,North America,South Sioux City,42.47031,-96.413949,Bombing/Explosion,,Private Citizens & Property,,,House/Apartment/Residence,,,Strikers,,,,True,False,False,The attack occurred during the violent Iowa Beef Packers strike in South Sioux City.,,Explosives,0,0,"1/22/1970: Unknown perpetrators detonated an explosive device near a private home in South Sioux City, Nebraska, United States.  There were no casualties, however, a sizable hole was left in the house and windows were broken.  This attack was one of many instances of violence in South Sioux City during the Iowa Beef Packers strike."
197001000000.0,1970-01-25,United States,North America,West Point,33.60651,-88.650419,Facility/Infrastructure Attack,,Private Citizens & Property,,,Race/Ethnicity Identified,,,White extremists,,,,True,False,False,The motive of the attack was to prevent the African American community of West Point Mississippi from organizing.,Building used as a meeting place for African Americans.,Incendiary,0,0,"1/25/1970: Unknown perpetrators burnt down a building that was a meeting spot for African Americans in West Point, Mississippi, United States.  There were no injuries or fatalities.  The attack occurred amidst widespread disapproval of school desegregation by the White population of West Point."
197001000000.0,1970-01-25,United States,North America,New York City,40.697132,-73.931351,Armed Assault,,Police,,,Police Security Forces/Officers,,,Black Nationalists,,,,True,False,False,To kill police,New York Police Officers responding to a call in Harlem,Firearms,0,2,"1/25/1970: Responding to what authorities believe was a fake report to lure police to Manhattan, New York, United States, Patrolmen William Kivlehan and Ralph Bax were shot at from a rooftop by unknown perpetrators after they got out of their car.  Officer Kivlehan was hit five times and officer Bax was hit three times.  Both policemen survived."
197001000000.0,1970-01-26,United States,North America,West Point,33.60651,-88.650419,Bombing/Explosion,,Government (General),,,Judge/Attorney/Court,,,Black Nationalists,,,,True,False,False,African American opposition to the school integration plan instituted by the federal government.  The government plan closed two Black schools.,Clay County Courthouse,Explosives,0,0,"1/26/1970: Unknown African American assailants, unsatisfied with the courts decision on desegregation, threw a stick of dynamite at the Clay County Courthouse in West Point, Mississippi, United States.  There were no injuries or fatalities but the windows of the building were shattered."
197001000000.0,1970-01-26,United States,North America,New York City,40.697132,-73.931351,Armed Assault,,Police,,,Police Patrol (including vehicles and convoys),,,Black Nationalists,,,,True,False,False,To kill police,New York Police Officer on patrol in Forest Hills,Firearms,0,0,"1/26/1970: Police officer Joseph Blik was on foot patrol in Queens, New York, United States when two people in a car stopped to ask him for directions.  The perpetrators in the car immediately fired two shots at Officer Blik and then drove away.  Officer Blik was not hit."
197001000000.0,1970-01-27,United States,North America,Norwalk,41.241996,-82.615241,Facility/Infrastructure Attack,,Government (General),,,Government Building/Facility/Office,,,Left-Wing Militants,,,,True,False,False,Protest and sabotage the draft,Selective Service office in Norwalk Ohio,Incendiary,0,0,"1/27/1970: Unknown perpetrators broke into the Selective Service Offices located at the Citizens Bank Building in Norwalk, Ohio, United States.  The perpetrators took out the draft records and set them on fire.  The attack caused an estimated $8,800 in damages."
197001000000.0,1970-01-28,East Germany (GDR),Eastern Europe,Berlin,52.50153,13.401851,Facility/Infrastructure Attack,,Police,,,Police Security Forces/Officers,,,Unknown,,,,True,False,False,,Residence of President of Penal Office,Incendiary,0,0,
197001000000.0,1970-01-28,United States,North America,Seattle,47.610786,-122.331306,Bombing/Explosion,,Religious Figures/Institutions,,,Place of Worship,,,White extremists,,,,True,False,False,,Temple De Hirsch,Explosives,0,0,"1/28/1970: Unknown perpetrators detonated an explosive device at Temple De Hirsch in Seattle, Washington, United States.  There were no casualties but the building sustained $1,000 in damages.  During this time period, there were numerous bombings in the Seattle area."
197001000000.0,1970-01-30,United States,North America,South Sioux City,42.479999,-96.413046,Bombing/Explosion,,Unknown,,,,,,Strikers,,,,True,False,False,The attack occurred during the violent Iowa Beef Packers strike in South Sioux City.,,Explosives,0,0,"1/30/1970: In a series of two incidents that were possibly related, unknown perpetrators detonated an explosive device at a building in South Sioux City, Nebraska, United States.  There were no casualties but the blast damaged the foundation of the building.  This attack was one of many instances of violence in South Sioux City during the Iowa Beef Packers strike."
197001000000.0,1970-01-30,United States,North America,South Sioux City,42.46634,-96.41405,Bombing/Explosion,,Business,,,Retail/Grocery/Bakery,,,Strikers,,,,True,False,False,The attack occurred during the violent Iowa Beef Packers strike in South Sioux City.,A & B Boat Shop,Explosives,0,0,"1/30/1970: In a series of two incidents that were possibly related, unknown perpetrators detonated an explosive device at the A & B Boat Shop in South Sioux City, Nebraska, United States.  There were no casualties but the blast caused $2,500 in damages.  This attack was one of many instances of violence in South Sioux City during the Iowa Beef Packers strike."
197001000000.0,1970-01-30,United States,North America,Coral Gables,25.720851,-80.277857,Facility/Infrastructure Attack,,Military,,,Military Recruiting Station/Academy,,,Student Radicals,,,,True,False,False,To protest the R.O.T.C. program and the War in Vietnam,"Army R.O.T.C., University of Miami",Incendiary,0,0,"1/20/1970: Unknown perpetrators firebombed the premises of the Army R.O.T.C. at the University of Miami in Coral Gables, Florida, United States.  There were no casualties but an Army personal carrier was damaged.  Two firebombs did not explode."
197001000000.0,1970-01-31,Philippines,Southeast Asia,Bamban,15.675051,120.331618,Unknown,,Military,,,"Military Personnel (soldiers, troops, officers, forces)",,,New People's Army (NPA),,,,False,False,False,,Seaman,Unknown,0,1,
197001000000.0,1970-01-31,United States,North America,Denver,39.758968,-104.876305,Bombing/Explosion,,Police,,,"Police Building (headquarters, station, school)",,,Unknown,,,,True,False,False,,"Police Band Building, Denver Colorado",Explosives,0,0,"1/31/1970: Unknown perpetrators bombed the Police Band Building in Denver, Colorado, United States.  There were no casualties but a restroom was damaged."
197002000000.0,1970-02-01,United States,North America,Portland,45.511795,-122.675629,Facility/Infrastructure Attack,,Government (General),,,Government Building/Facility/Office,,,Left-Wing Militants,,,,True,False,False,Protest and sabotage the draft,Selective Service office Local Board No. 28 in Portland Oregon,Incendiary,0,0,"2/1/1970: An unknown perpetrator broke into the Northeast Oregon building in Portland, Oregon, United States, which housed a Selective Service office and set fire to draft records.  About two hundred and fifty files were destroyed causing $4,189 in damage."
197002000000.0,1970-02-01,United States,North America,Cairo,37.005105,-89.176269,Armed Assault,,Police,,,"Police Building (headquarters, station, school)",,,Black Nationalists,,,,True,False,False,To protest police presence in Pyramid Courts,Illinois State Police in the Pyramid Courts housing project,Firearms,0,0,"2/1/1970: Unknown perpetrators fired shots at an Illinois State Police Car that was patrolling the all-Black Pyramid Courts housing development in Cairo, Illinois, United States.  Three bullets struck the police car of Officers Harold Nelson and John Abercrombie.  Neither officer was injured but the windshield of vehicle car was shattered."
197002000000.0,1970-02-02,United States,North America,New York City,40.697132,-73.931351,Facility/Infrastructure Attack,,Business,,,Retail/Grocery/Bakery,,,Unknown,,,,False,False,False,,Mays Department Store in Manhattan,Incendiary,0,0,"2/2/1970: An incendiary device was discovered at Mays department store in Manhattan, New York, United States.  The device was dismantled before it inflicted any damage.  The next day, two incendiary devices were discovered at other department stores in New York City."
197002000000.0,1970-02-03,United States,North America,New York City,40.697132,-73.931351,Facility/Infrastructure Attack,,Business,,,Retail/Grocery/Bakery,,,Unknown,,,,False,False,False,,Alexander's Department Store in the Bronx,Incendiary,0,0,"2/3/1970: In a series of related attacks, an incendiary device was discovered and dismantled at Alexander's Department Store in the Bronx, New York, United States."
197002000000.0,1970-02-03,United States,North America,New York City,40.697132,-73.931351,Facility/Infrastructure Attack,,Business,,,Retail/Grocery/Bakery,,,Unknown,,,,False,False,False,,Alexander's Department Store in Manhattan,Incendiary,0,0,"2/3/1970: In a series of related attacks, an incendiary device was ignited at Alexander's Department Store in Manhattan, New York, United States.  The device was immediately doused with water and did not cause any damage."
197002000000.0,1970-02-04,United States,North America,Akron,41.084195,-81.514059,Bombing/Explosion,,Private Citizens & Property,,,Vehicles/Transportation,,,Strikers,,,,True,False,False,The attack occurred during the violent Iowa Beef Packers strike.,,Explosives,0,0,"2/4/1970: In an attack suspected of being connected with the Iowa Beef Packer's Strike, a dynamite bomb exploded near a parked car in Akron, Ohio, United States.  There were no casualties and the car sustained only minor damages."
197002000000.0,1970-02-06,United States,North America,Denver,39.758968,-104.876305,Bombing/Explosion,,Transportation,,,Bus (excluding tourists),,,Black Nationalists,,,,True,False,False,Sabotage/protest the integration of Denver City Schools.,Denver City School Buses,Explosives,0,0,"2/6/1970: Unknown anti-desegregationists detonated at least twelve dynamite bombs damaging thirty-nine vehicles, most of them school buses, in Denver, Colorado, United States.  There were no casualties."
197002000000.0,1970-02-06,United States,North America,Seattle,47.610786,-122.331306,Bombing/Explosion,,Government (General),,,Politician or Political Party Movement/Meeting/Rally,,,White extremists,,,,True,False,False,To intimidate/show dissatisfaction with White sympathizers of the African American cause.,Fred Dore,Explosives,0,0,"2/6/1970: Suspected White Racists detonated a bomb at the house of State Senator Fred Dore in Seattle, Washington, United States.  There were no casualties, but the house sustained major damages.  Dore was a White sympathizer of African American causes."
197002000000.0,1970-02-06,United States,North America,Seattle,47.610786,-122.331306,Bombing/Explosion,,Religious Figures/Institutions,,,Place of Worship,,,White extremists,,,,True,False,False,,,Explosives,0,0,"2/6/1970: Unknown perpetrators detonated a bomb at a synagogue in Seattle, Washington, United States.  There were no casualties but the building as well as surrounding residences sustained minor damage.   During this time period, there were numerous bombings in the Seattle area."
197002000000.0,1970-02-06,United States,North America,Dorado,18.460791,-66.264884,Facility/Infrastructure Attack,,Government (General),,,Government Building/Facility/Office,,,Armed Revolutionary Independence Movement (MIRA),,,,True,False,False,To fight imperialism and exploitation.,Selective Service office in Dorado Puerto Rico,Incendiary,0,0,"2/6/1970: In a series of related events, the Armed Revolutionary Independence Movement (MIRA) claimed credit for igniting firebombs at a Selective Service office in Dorado, Puerto Rico.  There were no casualties and it is unknown if the firebombs caused any damage."
197002000000.0,1970-02-06,United States,North America,Rio Piedras,18.386932,-66.061127,Facility/Infrastructure Attack,,Utilities,,,Electricity,,,Armed Revolutionary Independence Movement (MIRA),,,,True,False,False,To fight imperialism and exploitation.,,Incendiary,0,0,"2/6/1970: In a series of related events, the Armed Revolutionary Independence Movement (MIRA) claimed credit for igniting firebombs at a General Electric facility in Rio Piedras, Puerto Rico.  There were no casualties and it is unknown if the firebombs caused any damage."
197002000000.0,1970-02-06,United States,North America,Carolina,18.441963,-66.026316,Facility/Infrastructure Attack,,Business,,,Hotel/Resort,,,Armed Revolutionary Independence Movement (MIRA),,,,True,False,False,To fight imperialism and exploitation.,San Juan Hotel,Incendiary,0,0,"2/6/1970: In a series of related events, the Armed Revolutionary Independence Movement (MIRA) claimed credit for igniting firebombs at Hotel San Juan in Carolina, Puerto Rico.  There were no casualties and it is unknown if the firebombs caused any damage."
197002000000.0,1970-02-06,United States,North America,Boston,42.3505,-71.105399,Facility/Infrastructure Attack,,Military,,,Military Recruiting Station/Academy,,,Student Radicals,,,,True,False,False,To protest the R.O.T.C. program,"R.O.T.C. office, Boston University",Incendiary,0,0,"2/6/1970: Unknown perpetrators firebombed an R.O.T.C. office at Boston University in Boston, Massachusetts, United States.  There were no casualties but the resulting fire damaged the office."
197002000000.0,1970-02-07,United States,North America,Whitewater,42.838355,-88.743224,Facility/Infrastructure Attack,,Educational Institution,,,School/University/Educational Building,,,Student Radicals,,,,True,False,False,,"Old Mail Hall, Wisconsin State College",Incendiary,0,0,"2/7/1970: Unknown perpetrators set a fire in Old Mail Hall at Wisconsin State College in Whitewater, Wisconsin, United States.  There were no casualties but the building sustained an estimated $1,000,000 in damages."
197002000000.0,1970-02-08,United States,North America,New York City,40.697132,-73.931351,Bombing/Explosion,,Business,,,Multinational Corporation,,,Armed Revolutionary Independence Movement (MIRA),,,,True,False,False,To fight imperialism and exploitation.,Queens General Electric Service Center,Explosives,0,0,"2/8/1970: In a series of related events, the Armed Revolutionary Independence Movement (MIRA) claimed credit for bombing the General Electric Service Center in Queens, New York, United States.  There were no casualties but the building sustains minor damages."
197002000000.0,1970-02-08,United States,North America,New York City,40.697132,-73.931351,Bombing/Explosion,,Business,,,Multinational Corporation,,,Armed Revolutionary Independence Movement (MIRA),,,,True,False,False,To fight imperialism and exploitation.,Brooklyn General Electric Service Center,Explosives,0,0,"2/8/1970: In a series of related events, the Armed Revolutionary Independence Movement (MIRA) claimed credit for bombing the General Electric Service Center in Brooklyn, New York, United States.  There are no casualties but the building sustains minor damages."
197002000000.0,1970-02-09,United States,North America,New York City,40.697132,-73.931351,Bombing/Explosion,,Business,,,Multinational Corporation,,,Armed Revolutionary Independence Movement (MIRA),,,,False,False,False,To fight imperialism and exploitation.,General Electric Headquarters,Explosives,0,0,"2/9/1970: In a series of related events, a member of the Armed Revolutionary Independence Movement (MIRA) was suspected of placing a bomb at the General Electric Headquarters in Manhattan, New York, United States.   The bomb was discovered and subsequently removed."
197002000000.0,1970-02-09,United States,North America,Batavia,39.07859,-84.179414,Bombing/Explosion,,Private Citizens & Property,,,Named Civilian,,,Strikers,,,,True,False,False,Protest employees of General Electric who were not union members,Leslie Jewel,Explosives,0,0,"2/9/1970: Unknown perpetrators in Batavia, Ohio, United States, bombed two cars belonging to Leslie Jewel, an employee of General Electric that was not part of the union.  The automobiles were damaged, but there were no casualties.  There had been a recent labor strike at the nearby General Electric Evendale plant."
197002000000.0,1970-02-10,West Germany (FRG),Western Europe,Munich,48.139126,11.580186,Armed Assault,,Airports & Aircraft,,,Airport,,,Popular Front for the Liberation of Palestine (PFLP),,,,True,False,False,,El Al Passenger Bus & Airport Lounge,Firearms,1,0,
197002000000.0,1970-02-11,United States,North America,Ypsilanti,42.263414,-83.665281,Facility/Infrastructure Attack,,Educational Institution,,,School/University/Educational Building,,,Student Radicals,,,,True,False,False,,,Incendiary,0,0,"2/11/1970: Unknown perpetrators threw a firebomb into a building at Washtenaw Community College in Ypsilanti, Michigan, United States.  There were no casualties, but the buildings sustained an estimated $2,500 in damages."
197002000000.0,1970-02-13,United States,North America,Berkeley,37.874043,-122.280022,Bombing/Explosion,,Police,,,"Police Building (headquarters, station, school)",,,Unknown,,,,True,False,False,,Police parking lot,Explosives,0,7,
197002000000.0,1970-02-13,West Germany (FRG),Western Europe,Munich,48.139126,11.580186,Facility/Infrastructure Attack,,Private Citizens & Property,,,House/Apartment/Residence,,,Popular Front for the Liberation of Palestine (PFLP),,,,True,False,False,,Jewish Old People's Home,Incendiary,7,9,
197002000000.0,1970-02-13,United States,North America,Berkeley,37.874043,-122.280022,Bombing/Explosion,,Police,,,"Police Building (headquarters, station, school)",,,Black Nationalists,,,,True,False,False,To intimidate the police.,Berkeley Police Station,Explosives,0,7,"2/13/1970: Unknown perpetrators detonated two dynamite bombs in the parking lot of the Berkeley Police Station in California, United States, during a shift change.  Seven police officers were injured, three cars were destroyed, and windows were shattered at nearby buildings."
197002000000.0,1970-02-15,United States,North America,New York City,40.697132,-73.931351,Bombing/Explosion,,Business,,,Bank/Commerce,,,Left-Wing Militants,,,,True,False,False,,"Chase Manhattan Bank, East Village Branch",Explosives,0,0,"7/15/1970: Unknown perpetrators bombed the Chase Manhattan Bank in Manhattan, New York, United States.  There were no casualties, however, the glass doors of the building and windows were shattered."
197002000000.0,1970-02-15,United States,North America,Eugene,44.04483,-123.072606,Facility/Infrastructure Attack,,Military,,,Military Recruiting Station/Academy,,,Student Radicals,,,,True,False,False,To protest the University of Oregon's decision to retain the R.O.T.C. program,"R.O.T.C. storage area, University of Oregon",Incendiary,0,1,"2/15/1970: Unknown perpetrators set fire to a building housing an R.O.T.C. storage area at the University of Oregon in Eugene, Oregon, United States.  One fireman was injured fighting the blaze and the men's physical education building sustained an estimated $350,000 in damages.  The incident took place a week after the university voted to retain the R.O.T.C. program."
197002000000.0,1970-02-16,United States,North America,San Francisco,37.755363,-122.443352,Bombing/Explosion,,Police,,,"Police Building (headquarters, station, school)",,,Unknown,,,,True,False,False,,police station,Explosives,1,0,
197002000000.0,1970-02-16,United States,North America,Berkeley,37.874043,-122.280022,Bombing/Explosion,,Business,,,Retail/Grocery/Bakery,,,Unknown,,,,True,False,False,,department store,Explosives,0,0,
197002000000.0,1970-02-16,United States,North America,Berkeley,37.874043,-122.280022,Bombing/Explosion,,Business,,,Retail/Grocery/Bakery,,,Unknown,,,,True,False,False,,department store,Explosives,0,0,
197002000000.0,1970-02-16,United States,North America,San Francisco,37.755363,-122.443352,Armed Assault,,Police,,,Police Security Forces/Officers,,,Left-Wing Militants,,,,False,False,False,To intimidate the police.,San Francisco Police Officers,Firearms,0,0,"2/16/1970: Four hours after a San Francisco Police Station was bombed in California, United States, a sniper took aim at three police officers.  However, police fired at the sniper before he could get a shot off.  The sniper and a companion fled the scene before being apprehended."
197002000000.0,1970-02-17,United States,North America,Oakland,37.791927,-122.225906,Bombing/Explosion,,Business,,,Construction,,,Unknown,,,,False,False,False,,Walter Boysen Paint Company,Explosives,0,0,"2/17/1970: A day after bombings in San Francisco and Berkeley, twenty-four sticks of dynamite were discovered at Walter Boysen Paint Company in Oakland, California, United States.  The bombs never detonated."
197002000000.0,1970-02-17,United States,North America,Buckeystown,39.334825,-77.431653,Bombing/Explosion,,Utilities,,,Electricity,,,Unknown,,,,True,False,False,,Power supply of the Frederick Maryland area,Explosives,0,0,"2/17/1970: Unknown perpetrators bombed a power pole in Buckeystown, Maryland, United States.  There were no casualties, however, as a result of the bombing, five-hundred homes and two industrial facilities lost power.  Windows were also shattered in buildings a quarter of a mile a way."
197002000000.0,1970-02-17,United States,North America,Covington,30.493919,-90.132512,Bombing/Explosion,,Educational Institution,,,School/University/Educational Building,,,White extremists,,,,True,False,False,Suspected motive was to protest school integration.,Covington High School,Explosives,0,0,"2/17/1970: Unknown perpetrators detonated a bomb at Covington High School in Louisiana, United States.  There were no casualties but the building sustained minor damages.  The bombing took place six months before the school was integrated."
197002000000.0,1970-02-17,United States,North America,Seattle,47.610786,-122.331306,Bombing/Explosion,,Military,,,Military Barracks/Base/Headquarters/Checkpost,,,Student Radicals,,,,False,False,False,Protest the War in Vietnam,"Armory, University of Washington",Explosives,0,0,"2/17/1970: Unknown perpetrators placed a gasoline bomb underneath the Armory at the University of Washington in Seattle, United States.  The bomb did not explode and was later discovered and removed."
197002000000.0,1970-02-18,United States,North America,Cleveland,41.479561,-81.675461,Bombing/Explosion,,Police,,,Police Security Forces/Officers,,,Black Nationalists,,,,True,False,False,,,Explosives,0,0,"2/18/1970: Amidst a period racial strife at Cuyahoga Community College in Cleveland, Ohio, United States, unknown perpetrators detonated a bomb that damaged a car of a police officer working as a security guard."
197002000000.0,1970-02-18,United States,North America,Vallejo,38.10083,-122.254954,Bombing/Explosion,,Police,,,Police Security Forces/Officers,,,Black Nationalists,,,,True,False,False,,,Explosives,0,0,"2/18/1970: Booby trapped handgrenades were discovered wired to a car in the parking lot of the Vallejo Police Department in California, United States.  The device was deactivated."
197002000000.0,1970-02-20,United States,North America,Hartford,41.763325,-72.674069,Facility/Infrastructure Attack,,Government (General),,,Judge/Attorney/Court,,,Left-Wing Militants,,,,True,False,False,,United States District Court of Connecticut,Incendiary,0,0,"2/20/1970: Unknown perpetrators threw a Molotov cocktail at a Federal Building that housed a United States Courthouse in Hartford, Connecticut, United States.  There were no casualties but the building sustained an estimated $450 in damages."
197002000000.0,1970-02-20,United States,North America,New York City,40.697132,-73.931351,Facility/Infrastructure Attack,,Educational Institution,,,School/University/Educational Building,,,Student Radicals,,,,True,False,False,,Columbia University International Law Library,Incendiary,0,0,"2/20/1970: Unknown perpetrators ignited a firebomb at the Columbia University International Law Library in Manhattan, New York, United States.  There were no casualties but the building sustained slight damages."
197002000000.0,1970-02-20,United States,North America,Seattle,47.610786,-122.331306,Bombing/Explosion,,Educational Institution,,,School/University/Educational Building,,,Student Radicals,,,,True,False,False,,"Construction site of Architecture School, University of Washington",Explosives,0,0,"2/20/1970: Unknown perpetrators placed two dynamite bombs at the construction site of the School of Architecture at the University of Washington in Seattle, Washington, United States.  Only one of the two bombs exploded causing little damage.  There were no casualties."
197002000000.0,1970-02-21,West Germany (FRG),Western Europe,Frankfurt,50.11797,8.644191,Bombing/Explosion,,Airports & Aircraft,,,Aircraft (not at an airport),,,"Popular Front for the Liberation of Palestine, Gen Cmd (PFLP-GC)",,,,True,False,False,,Austrian Airliner en route to Tel Aviv,Explosives,0,0,
197002000000.0,1970-02-21,Switzerland,Western Europe,Zurich,47.36865,8.539182,Bombing/Explosion,,Airports & Aircraft,,,Aircraft (not at an airport),,,"Popular Front for the Liberation of Palestine, Gen Cmd (PFLP-GC)",,,,True,False,False,,Swiss Air DC-9,Explosives,47,0,
197002000000.0,1970-02-21,United States,North America,New York City,40.697132,-73.931351,Facility/Infrastructure Attack,,Police,,,"Police Building (headquarters, station, school)",,,Left-Wing Militants,,,,False,False,False,,Charles Street Police Station,Incendiary,0,0,"2/21/1970: Unknown perpetrators threw a firebomb at a police car in front of the Charles Street Police Station in Greenwich, New York, United States.  Another bomb was thrown to the pavement  seventy-five feet away.  The attacks caused no damages or casualties."
197002000000.0,1970-02-21,United States,North America,New York City,40.697132,-73.931351,Facility/Infrastructure Attack,,Military,,,Military Recruiting Station/Academy,,,Left-Wing Militants,,,,True,False,False,,Army Recruiting Booth and Navy Recruiting Booth,Incendiary,0,0,"2/21/1970: Two Military Recruiting Stations in the vicinity of Brooklyn College were firebombed by unknown perpetrators in New York, United States.  There were no casualties but the recruiting stations sustained minor damages before the fire was extinguished."
197002000000.0,1970-02-21,United States,North America,New York City,40.697132,-73.931351,Bombing/Explosion,,Private Citizens & Property,,,Named Civilian,,,"Weather Underground, Weathermen",,,,True,False,False,Protest Vietnam War and show support for Black Panthers.,Judge John Murtagh and family,Explosives,0,0,"2/21/1970: The Weathermen claimed credit for bombing the residence of State Supreme Court Justice John Murtagh New York, United States.  The attack caused no casualties but the house sustained minor damages.  Judge Murtagh was presiding over a trial of thirteen Black Panther members at the time.    Anti-Vietnam war and pro-Black Panther graffiti was left at the scene of the attack."
197002000000.0,1970-02-21,United States,North America,Denver,39.758968,-104.876305,Facility/Infrastructure Attack,,Private Citizens & Property,,,Named Civilian,,,Black Nationalists,,,,True,False,False,Protest anti-integrationists of the Denver City Schools.,James C. Perrill,Incendiary,0,0,"2/21/1970: Unknown perpetrators threw a firebomb into the residence of James C. Perrill in Denver, Colorado, United States.  There were no casualties and it is unknown if the house was damaged.  The attack occurred during heightened racial tensions due to the integration of Denver City Schools and Perrill was  a conservative school board member."
197002000000.0,1970-02-22,United States,North America,Ithaca,42.455233,-76.475847,Facility/Infrastructure Attack,,Educational Institution,,,School/University/Educational Building,,,White extremists,,,,True,False,False,To intimidate the African American community at Cornell University,Dormitory housing Black Women's Collective,Incendiary,0,0,"2/22/1970: Unknown perpetrators threw kerosene flare pots at the Wari House Dormitory which housed the Black Women's Cooperative at Cornell University in Ithaca, New York, United States.  The incendiary tossed at the dormitory failed to ignite, but an incendiary thrown through the window of a car parked in front of the dormitory burst into flames and caused minor damages to the vehicle.  There were no casualties."
197002000000.0,1970-02-22,United States,North America,Prairie du Sac,43.287052,-89.724361,Bombing/Explosion,,Utilities,,,Electricity,,,New Year's Gang,,,,False,False,False,To sabotage the Badger Ammunition Plant,"Wisconsin Power and Light Company substation, Prairie du Sac",Explosives,0,0,"2/22/1970: Karl Armstrong, a member of the New Years Gang, attempted to bomb the Wisconsin Power and Light substation in Prairie du Sac, Wisconsin, United States.  Carrying thirteen sticks of dynamite he broke into the substation, but fled the scene when a night security guard arrived unexpectedly.  The substation supplied power to the Badger Ammunition Plant."
197002000000.0,1970-02-23,United States,North America,South Sioux City,42.47031,-96.413949,Bombing/Explosion,,Utilities,,,Electricity,,,Strikers,,,,True,False,False,The attack occurred during the violent Iowa Beef Packers strike in South Sioux City.,Power Transmission Pole in the Dakota City/Sioux City area,Explosives,0,0,"2/23/1970: In a series of related attacks, unknown perpetrators bombed four separate power transmission poles in the Dakota City and Sioux City areas in Nebraska, United States.  There were no casualties and none of the dynamite blasts broke off any of the poles.   These attacks were one of many instances of violence in South Sioux City during the Iowa Beef Packers strike."
197002000000.0,1970-02-23,United States,North America,South Sioux City,42.47031,-96.413949,Bombing/Explosion,,Utilities,,,Electricity,,,Strikers,,,,True,False,False,The attack occurred during the violent Iowa Beef Packers strike in South Sioux City.,Power Transmission Pole in the Dakota City/Sioux City area,Explosives,0,0,"2/23/1970: In a series of related attacks, unknown perpetrators bombed four separate power transmission poles in the Dakota City and Sioux City areas in Nebraska, United States.  There were no casualties and none of the dynamite blasts broke off any of the poles.   These attacks were one of many instances of violence in South Sioux City during the Iowa Beef Packers strike."
197002000000.0,1970-02-23,United States,North America,South Sioux City,42.47031,-96.413949,Bombing/Explosion,,Utilities,,,Electricity,,,Strikers,,,,True,False,False,The attack occurred during the violent Iowa Beef Packers strike in South Sioux City.,Power Transmission Pole in the Dakota City/Sioux City area,Explosives,0,0,"2/23/1970: In a series of related attacks, unknown perpetrators bombed four separate power transmission poles in the Dakota City and Sioux City areas in Nebraska, United States.  There were no casualties and none of the dynamite blasts broke off any of the poles.   These attacks were one of many instances of violence in South Sioux City during the Iowa Beef Packers strike."
197002000000.0,1970-02-23,United States,North America,South Sioux City,42.47031,-96.413949,Bombing/Explosion,,Utilities,,,Electricity,,,Strikers,,,,True,False,False,The attack occurred during the violent Iowa Beef Packers strike in South Sioux City.,Power Transmission Pole in the Dakota City/Sioux City area,Explosives,0,0,"2/23/1970: In a series of related attacks, unknown perpetrators bombed four separate power transmission poles in the Dakota City and Sioux City areas in Nebraska, United States.  There were no casualties and none of the dynamite blasts broke off any of the poles.   These attacks were one of many instances of violence in South Sioux City during the Iowa Beef Packers strike."
197002000000.0,1970-02-23,United States,North America,Tucson,32.222232,-110.925752,Bombing/Explosion,,Military,,,Military Barracks/Base/Headquarters/Checkpost,,,Left-Wing Militants,,,,True,False,False,Protest the draft.,"Selective Service Headquarters, Tucson Arizona.",Explosives,0,0,"2/23/1970: Unknown perpetrators detonated a dynamite bomb in front of the Selective Service Headquarters in Tucson, Arizona, United States. There were no casualties, however, all of the windows of the building shattered."
197002000000.0,1970-02-24,United States,North America,Denver,39.758968,-104.876305,Bombing/Explosion,,Private Citizens & Property,,,Named Civilian,,,White extremists,,,,True,False,False,Protest the desegregation of Denver City Schools.,Wilfred Keyes,Explosives,0,0,"2/24/1970: Unknown perpetrators detonated a pipe bomb in front of the house of Wilfred Keyes in Denver, Colorado, United States.  There were no casualties, however, the front porch was destroyed and many windows were shattered.  Keyes was the lead plaintiff in a court case calling for the desegregation of Denver City Schools."
197002000000.0,1970-02-24,United States,North America,Champaign,40.101952,-88.227161,Facility/Infrastructure Attack,,Military,,,Military Recruiting Station/Academy,,,Student Radicals,,,,True,False,False,Protest secret government research at the University of Illinois and the R.O.T.C. program.,"R.O.T.C., University of Illinois",Incendiary,0,0,"2/24/1970: Unknown perpetrators threw a Molotov cocktail into the Armory at the University of Illinois, Champaign-Urbana, United States.  There were no casualties but the firebomb caused $2,000 in damages.  The offices of the R.O.T.C. were located in the Armory"
197002000000.0,1970-02-27,United States,North America,Boulder,40.007581,-105.265942,Bombing/Explosion,,Educational Institution,,,School/University/Educational Building,,,Student Radicals,,,,True,False,False,Protesting scholarship money that was set aside for minorities but had yet to be awarded,Institute of Behavioral Sciences,Explosives,0,0,"2/27/1970: Unknown perpetrators detonated a bomb in the Behavioral Sciences Building at the University of Colorado at Boulder in Colorado, United States.  There were no casualties but the building was damaged."
197002000000.0,1970-02-28,Jordan,Middle East & North Africa,Hebron,31.530243,35.094162,Armed Assault,,Tourists,,,Tour Bus/Van,,,Unknown,,,,True,False,False,,Tourist Bus,Firearms,0,0,
197003000000.0,,Philippines,Southeast Asia,Manila,14.596051,120.978666,Bombing/Explosion,,Government (Diplomatic),,,Embassy/Consulate,,,Unknown,,,,True,False,False,,U.S. Embassy,Explosives,0,0,
197003000000.0,1970-03-01,Italy,Western Europe,Rome,41.890961,12.490069,Bombing/Explosion,,Airports & Aircraft,,,Aircraft (not at an airport),,,Eritrean Liberation Front,,,,False,False,False,,Ethopian Airliner,Explosives,0,0,
197003000000.0,1970-03-01,United States,North America,Boulder,40.007581,-105.265942,Bombing/Explosion,,Military,,,Military Recruiting Station/Academy,,,Student Radicals,,,,True,False,False,Protest the Vietnam War and the R.O.T.C.,Air Force R.O.T.C. at University of Colorado,Explosives,0,0,"3/1/1970: Unknown perpetrators bombed the office of the Air Force R.O.T.C. at the University of Colorado in Boulder, Colorado, United States.  There were no casualties but the R.O.T.C. training facility sustained an estimated $2,000 in damages."
197003000000.0,1970-03-01,United States,North America,Colorado Springs,38.864281,-104.778412,Facility/Infrastructure Attack,,Military,,,Military Barracks/Base/Headquarters/Checkpost,,,Left-Wing Militants,,,,True,False,False,Protest the War in Vietnam and sabotage the draft,"Selective Service Headquarters, Colorado Springs",Incendiary,0,0,"3/1/1970: Unknown perpetrators firebombed the headquarters of the Selective Service in Colorado Springs, Colorado, United States.  There were no casualties but the building sustained moderate damages."
197003000000.0,1970-03-01,United States,North America,Boulder,40.007581,-105.265942,Facility/Infrastructure Attack,,Police,,,Police Patrol (including vehicles and convoys),,,Student Radicals,,,,True,False,False,,Police Car,Incendiary,0,0,"3/1/1970: In a series of two incidents that were possibly related, unknown perpetrators firebombed a University of Colorado campus police vehicle in Boulder, Colorado, United States.  There were no casualties but the car was damaged."
197003000000.0,1970-03-01,United States,North America,Boulder,40.014986,-105.270546,Bombing/Explosion,,Police,,,Police Patrol (including vehicles and convoys),,,Left-Wing Militants,,,,True,False,False,,Police Car,Explosives,0,0,"3/2/1970: In a series of two incidents that were possibly related, unknown perpetrators bombed a city police car in Boulder, Colorado, United States.  There were no casualties but the car was damaged."
197003000000.0,1970-03-02,United States,North America,Cleveland,41.479561,-81.675461,Facility/Infrastructure Attack,,Private Citizens & Property,Police,,Named Civilian,Police Security Forces/Officers,,Black Nationalists,,,,True,False,False,To protest Frank Schaeffer's defense of the Cleveland Police Deparment during the 1968 Glenville racial riots,Frank Schaeffer,Incendiary,0,0,"3/2/1970: Unknown perpetrators threw a Molotov cocktail into the house of Frank Schaeffer, the president of the Cleveland Fraternal Order of Police, in Cleveland, Ohio, United States.  There were no casualties but the fire caused an estimated $200 in damages.  Schaeffer had recently defended the actions of Cleveland Police Officers during the 1968 racial disorders."
197003000000.0,1970-03-03,Spain,Western Europe,Unknown,,,Hostage Taking (Kidnapping),,Government (General),,,Politician or Political Party Movement/Meeting/Rally,,,1st of May Group,,,,False,False,False,,"Garrigues, permanent spanish delegaet to Unesco",Unknown,0,0,
197003000000.0,1970-03-03,United States,North America,Denver,39.758968,-104.876305,Bombing/Explosion,,Private Citizens & Property,,,Vehicles/Transportation,,,Left-Wing Militants,,,,True,False,False,,Foreign cars painted red,Explosives,0,0,"3/3/1970: Unknown perpetrators bombed a foreign-made car painted red in Denver, Colorado, United States.  There were no casualties but the car was damaged."
197003000000.0,1970-03-03,United States,North America,Seattle,47.610786,-122.331306,Bombing/Explosion,,Government (General),,,Government Building/Facility/Office,,,Student Radicals,,,,True,False,False,,Post Office in Seattle's University District,Explosives,0,0,"3/3/1970: Four left wing radicals set off a dynamite bomb at a post office in Seattle, Washington, United States.  There were no casualties but the building and a vehicle were damaged."
197003000000.0,1970-03-04,United States,North America,Oakland,37.791927,-122.225906,Bombing/Explosion,,Military,,,Military Barracks/Base/Headquarters/Checkpost,,,Left-Wing Militants,,,,False,False,False,Sabotage the US Army war efforts and protest the Vietnam War,Oakland Army Base,Explosives,0,0,"3/4/1970: Unknown perpetrators placed a time bomb in a Barracks at the Oakland Army Base in California, United States.  The bomb was subsequently discovered and disarmed. The base was used as a departing point for United States troops heading to Vietnam."
197003000000.0,1970-03-04,United States,North America,Martinez,38.019304,-122.134062,Bombing/Explosion,,Transportation,,,Train/Train Tracks/Trolley,,,Unknown,,,,False,False,False,,,Explosives,0,0,"3/4/1970: Unknown perpetrators placed a bomb on a railroad car in Martinez, California, United States.  The bomb was subsequently discovered and disarmed.  The railroad car was used to transport acid."
197003000000.0,1970-03-04,United States,North America,Denver,39.758968,-104.876305,Bombing/Explosion,,Private Citizens & Property,,,Vehicles/Transportation,,,Left-Wing Militants,,,,True,False,False,,Foreign cars painted red,Explosives,0,0,"3/4/1970: Unknown perpetrators bombed a foreign-made car painted red in Denver, Colorado, United States.  There were no casualties but the car was damaged."
197003000000.0,1970-03-05,United States,North America,Seattle,47.610786,-122.331306,Bombing/Explosion,,Government (General),,,Government Building/Facility/Office,,,Left-Wing Militants,,,,True,False,False,,University District Post Office,Explosives,0,0,"3/5/1970: Unknown perpetrators detonated a bomb at the University District Post Office in Seattle, Washington, United States.  There were no casualties, however, the side of the building was damaged."
197003000000.0,1970-03-05,United States,North America,Denver,39.758968,-104.876305,Bombing/Explosion,,Private Citizens & Property,,,Vehicles/Transportation,,,Left-Wing Militants,,,,True,False,False,,Foreign cars painted red,Explosives,0,0,"3/5/1970: Unknown perpetrators bombed a foreign-made car painted red in Denver, Colorado, United States.  There were no casualties but the car was heavily damaged."
197003000000.0,1970-03-05,United States,North America,San Juan,18.386932,-66.061127,Assassination,,Military,,,"Military Personnel (soldiers, troops, officers, forces)",,,Armed Commandos of Liberation,,Armed Revolutionary Independence Movement (MIRA),,True,False,False,To protest United States presence in Puerto Rico and revenge the death of Antonia Martinez Lagares,Two members of the United States Navy,Firearms,2,0,"3/5/1970: Unknown Puerto Rican Nationalists assassinated two United States Navy personal stationed in San Juan, Puerto Rico.  The incident was in response to the death of Antonia Martinez Lagaras, who was shot and killed during a confrontation between students and police in front of the R.O.T.C. building at the University of Puerto Rico, Rio Piedras a day earlier."
197003000000.0,1970-03-06,Guatemala,Central America & Caribbean,Guatemala City,14.622869,-90.529068,Hostage Taking (Kidnapping),,Government (Diplomatic),,,"Diplomatic Personnel (outside of embassy, consulate)",,,Rebel Armed Forces of Guatemala (FAR),,,,True,False,True,,"Sean Holley, U.S. labor attache, U.S. embassy",Firearms,0,0,
197003000000.0,1970-03-06,United States,North America,Detroit,42.331685,-83.047924,Bombing/Explosion,,Police,,,"Police Building (headquarters, station, school)",,,"Weather Underground, Weathermen",,,,False,False,False,To kill police,Detroit Police Department Building,Explosives,0,0,"3/6/1970: In a series of related unsuccessful attacks, suspected members of the Weathermen placed thirty-four sticks of dynamite at the Detroit Police Department building in Michigan, United States.  The bombs were subsequently discovered and  disarmed."
197003000000.0,1970-03-06,United States,North America,Detroit,42.331685,-83.047924,Bombing/Explosion,,Police,,,Police Security Forces/Officers,,,"Weather Underground, Weathermen",,,,False,False,False,To kill police,Detroit Police Officers Association,Explosives,0,0,"3/6/1970: In a series of related unsuccessful attacks, suspected members of the Weathermen tossed a package containing dynamite through a window of the Detroit Police Officers Association in Michigan, United States.  The dynamite was  discovered and subsequently disarmed."
197003000000.0,1970-03-09,United States,North America,Berkeley,37.874043,-122.280022,Facility/Infrastructure Attack,,Educational Institution,,,School/University/Educational Building,,,Unknown,,,,True,False,False,,Library,Incendiary,0,0,
197003000000.0,1970-03-09,United States,North America,Ashville,33.83651,-86.254749,Facility/Infrastructure Attack,,Private Citizens & Property,,,Religion Identified,,,Ku Klux Klan,,,,True,False,False,,Black Muslims,Chemical,0,0,
197003000000.0,1970-03-09,United States,North America,Bridgeport,41.18188,-73.191269,Facility/Infrastructure Attack,,Religious Figures/Institutions,,,Place of Worship,,,White extremists,,,,True,False,False,,Shiloh Baptist Church,Incendiary,0,0,"3/9/1970: Unknown perpetrators firebombed Shiloh Baptist Church, a predominantly African American Church, in Bridgeport, Connecticut, United States.  There were no casualties but the building sustained minor damages."
197003000000.0,1970-03-09,United States,North America,Albuquerque,35.084319,-106.619781,Bombing/Explosion,,Military,,,Military Recruiting Station/Academy,,,White extremists,,,,False,False,False,Protest the R.O.T.C. program and Vietnam War,Air Force R.O.T.C. at University of New Mexico,Explosives,0,0,"3/9/1970: Unknown perpetrators placed an incendiary bomb underneath the Air Force R.O.T.C. building at the University of New Mexico in Albuquerque, New Mexico, United States.  The bomb was discovered and disarmed fifteen minutes before it was set to explode."
197003000000.0,1970-03-09,United States,North America,Bel Air,39.53894,-76.348479,Bombing/Explosion,,Unknown,,,,,,Black Nationalists,,,,False,False,False,The suspected motive was to disrupt the trial of H. Rap Brown,,Explosives,2,0,"3/9/1970: A bomb exploded in the car of Ralph Featherstone and William Payne, members of the Student non-violent Coordinating Committee and supporters of H. Rap Brown, while they were driving in Bel Air, Maryland, United States.  Both men died as a result of the blast.  Police suspected that the bomb exploded prematurely and was intended for H. Rap Brown's trial scheduled to be held  at the Harford County Courthouse   Many members of the radical Black community believed that the bomb was set off by White Racists or the police.  The next day, a bomb was detonated at Dorchester County Courthouse, the original location of Brown's trial, by an unknown perpetrator."
197003000000.0,1970-03-10,West Germany (FRG),Western Europe,Munich,48.139126,11.580186,Bombing/Explosion,,Government (General),,,Judge/Attorney/Court,,,Unknown,,,,False,False,False,,Court Building (Amstgericht),Explosives,0,0,
197003000000.0,1970-03-10,United States,North America,Cambridge,38.563122,-76.078063,Bombing/Explosion,,Government (General),,,Judge/Attorney/Court,,,Left-Wing Militants,,,,True,False,False,To disrupt the trial of H. Rap Brown,Dorchester County Courthouse,Explosives,0,0,"3/10/1970: An unidentified White middle-aged female was suspected of bombing the Dorchester County Courthouse in Cambridge, Maryland, United States where the trial for radical Black leader H. Rap Brown was originally scheduled to be held.  There were no casualties but the building sustained extensive damages."
197003000000.0,1970-03-10,United States,North America,San Francisco,37.755363,-122.443352,Facility/Infrastructure Attack,,Business,Educational Institution,,,Other Personnel,,Student Radicals,,,,False,False,False,To protest the policies of S. I. Hayakawa towards student demonstrators,Office of S. I. Hayakawa,Incendiary,0,0,"3/10/1970: Unknown perpetrators threw a Molotov cocktail into the office of Dr. Samuel Ichiye Hayakawa, the president of San Francisco State College, in San Francisco, California, United States.  The bomb failed to ignite.  The next day their were violent protests on campus against military recruiters on the SFSC campus.  Previously, S. I. Hayakawa took a hard line against student demonstrators."
197003000000.0,1970-03-11,Brazil,South America,Sao Paulo,-23.550711,-46.633475,Hostage Taking (Kidnapping),,Government (Diplomatic),,,"Diplomatic Personnel (outside of embassy, consulate)",,,Popular Revolutionary Vanguard (VPR),,,,True,False,True,,"Nobico Okushi, Japanese consul general, Sao PAulo",Unknown,0,0,
197003000000.0,1970-03-11,United States,North America,Champaign,40.102408,-88.227159,Facility/Infrastructure Attack,,Military,,,Military Recruiting Station/Academy,,,Student Radicals,,,,True,False,False,Protest the government's presence on the University of Illinois campus.,"Army and Air Force Recruiting Station, University of Illinois",Incendiary,0,0,"3/11/1970: Unknown perpetrators firebombed the Army and Air Force Recruiting Station at the University of Illinois, Champaign-Urbana, United States.  There were no casualties but the Recruiting Station was destroyed."
197003000000.0,1970-03-12,United States,North America,New York City,40.697132,-73.931351,Bombing/Explosion,,Business,,,Retail/Grocery/Bakery,,,Revolutionary Force 9,,,,True,False,False,,general telephone and electronics,Explosives,0,0,
197003000000.0,1970-03-12,United States,North America,New York City,40.697132,-73.931351,Bombing/Explosion,,Business,,,Multinational Corporation,,,Revolutionary Force 9,,,,True,False,False,,IBM,Explosives,0,0,
197003000000.0,1970-03-12,United States,North America,Chicago,41.842602,-87.681229,Bombing/Explosion,,Police,,,Police Patrol (including vehicles and convoys),,,Black Nationalists,,,,True,False,False,,Chicago Police Car,Explosives,0,0,"3/12/1970:  In a series of two incidents that were possibly related, a bomb exploded underneath an empty police car parked in front of detective headquarters in Chicago, Illinois, United States.  There were no casualties but the car sustained minor damages."
197003000000.0,1970-03-12,United States,North America,Chicago,41.842602,-87.681229,Bombing/Explosion,,Police,,,Police Patrol (including vehicles and convoys),,,Black Nationalists,,,,True,False,False,,Chicago Police Car,Explosives,0,0,"3/12/1970:  In a series of two incidents that were possibly related, a cherry bomb was thrown at an empty police car in Chicago, Illinois, United States, after two officers left the vehicle responding to a call for help.  There were no casualties but the car was damaged."
197003000000.0,1970-03-12,United States,North America,New York City,40.697132,-73.931351,Bombing/Explosion,,Business,,,Gas/Oil/Electric,,,Revolutionary Force 9,,,,True,False,False,Protest the Vietnam War and companies profiting from the war,Mobil Oil Company Building,Explosives,0,0,"3/12/1970: In a series of related attacks, the Revolutionary Force 9 claimed credit for the bombing of the Mobil Oil Company Building in Manhattan, New York, United States.  There were no casualties but the building sustained heavy structural damage.  The Revolutionary Force 9 claimed that the Mobil Oil Company was an ""enem(y) of human life"" because it profited off of the Vietnam War."
197003000000.0,1970-03-13,United States,North America,Appleton,44.260288,-88.397455,Facility/Infrastructure Attack,,Military,,,Military Recruiting Station/Academy,,,Student Radicals,,,,True,False,False,Protest the R.O.T.C. program and Vietnam War,R.O.T.C. at Lawrence University,Incendiary,0,0,"3/13/1970: In a series of two incidents that were possibly related, unknown perpetrators set off a firebomb at the R.O.T.C. Building at Lawrence University in Appleton, Wisconsin, United States.  There were no casualties but the building sustained damage to its walls"
197003000000.0,1970-03-13,United States,North America,Appleton,44.268598,-88.42844,Facility/Infrastructure Attack,,Educational Institution,,,School/University/Educational Building,,,Student Radicals,,,,True,False,False,,Appleton West High School,Incendiary,0,0,"3/13/1970: In a series of two incidents that were possibly related, unknown perpetrators threw two incendiary devices into Appleton West High School in Wisconsin, United States.  The firebombs caused a fire but there were no casualties."
197003000000.0,1970-03-14,Ethiopia,Sub-Saharan Africa,Unknown,,,Hostage Taking (Kidnapping),,Journalists & Media,Unknown,,Newspaper Journalist/Staff/Facility,,,Eritrean Liberation Front,,,,True,False,True,,Film crew,Unknown,0,0,
197003000000.0,1970-03-14,Egypt,Middle East & North Africa,Alexandria,31.198056,29.919167,Bombing/Explosion,,Airports & Aircraft,,,Aircraft (not at an airport),,,Unknown,,,,True,False,False,,United Arab Airlines Flight Antonov 24 Acft,Explosives,0,2,
197003000000.0,1970-03-14,United States,North America,New York City,40.697132,-73.931351,Bombing/Explosion,,Military,,,Military Barracks/Base/Headquarters/Checkpost,,,Left-Wing Militants,,,,False,False,False,Protest the Vietnam War and sabotage the US Army,Army Reserve Building,Explosives,0,0,"3/14/1970: Unknown perpetrators placed an explosive device outside of the U. S. Army Reserve Building in Fort Hamilton, New York, United States.  The device was discovered and disarmed."
197003000000.0,1970-03-14,United States,North America,Long Beach,33.766725,-118.192399,Hijacking,,Military,,,Military Maritime,,,Left-Wing Militants,,,,True,False,True,To impede the US war effort and protest the Vietnam War,SS Columbia Eagle,Firearms,0,0,"3/14/1970: Two crewmen on the SS Columbia Eagle, Clyde William McKay Jr. and Leonard Glatkowski, hijacked the ship which debarked from Long Beach, California, United States towards Thailand.  The ship was transporting munitions that were to be used by the US military in the Vietnam War.  Twenty four crewmen were released from the ship immediately after the hijacking while thirteen were held on board as the ship was diverted to Cambodia.  The next day the SS Columbia reached Cambodia and the two perpetrators attempted attain asylum.  After many negotiations, the ship and crew were allowed to return to the United States on April 8th and McKay and Glatkowski remained in Cambodia."
197003000000.0,1970-03-15,United States,North America,San Juan,18.386932,-66.061127,Bombing/Explosion,,Business,,,Retail/Grocery/Bakery,,,Puerto Rican Nationalists,,,,True,False,False,,Kresge's Department Store,Explosives,0,0,"3/15/1970: Unknown perpetrators detonated a bomb at a Kresge's Department Store in suburban San Juan, Puerto Rico.  There were no casualties and only minor damages were inflicted.  Kresge was an American owned company."
197003000000.0,1970-03-15,United States,North America,Billings,45.783975,-108.505794,Bombing/Explosion,,Police,,,Police Patrol (including vehicles and convoys),,,Unknown,,,,True,False,False,,Billings Police car,Explosives,0,0,"3/15/1970: Unknown perpetrators detonated a bomb in the backseat of a parked police car in Billings, Montana, United States.  There were no casualties, however, the car was demolished."
197003000000.0,1970-03-16,United States,North America,San Bernardino,34.105245,-117.294124,Facility/Infrastructure Attack,,Government (General),,,Politician or Political Party Movement/Meeting/Rally,,,White extremists,,,,True,False,False,To protest African Americans sitting on the San Bernardino city council,Norris Gregory,Incendiary,0,1,"3/16/1970: Unknown perpetrators threw four firebombs at the house of Councilman Norris Gregory in San Bernardino, California, United States.  He received minor burns attempting to put out the fire and the house sustained an estimated $4,000 in damages.  Gregory was the first and only Black councilman in San Bernadino at the time."
197003000000.0,1970-03-17,United States,North America,Los Angeles,34.097866,-118.407379,Bombing/Explosion,,Educational Institution,,,School/University/Educational Building,,,Chicano Liberation Front,,,,True,False,False,To protest the poor quality of education at a school district made up primarily of Mexican-Americans.,"Administration offices, Roosevelt High School",Explosives,0,0,"3/17/1970: Suspected members of the Chicano Liberation Front detonated two bombs in administration offices at Roosevelt High School in Los Angeles, California, United States.  There were no casualties and the bombs caused little damage."
197003000000.0,1970-03-18,United States,North America,Lockland,39.226835,-84.453309,Bombing/Explosion,,Utilities,,,,,,Unknown,,,,True,False,False,,Cincinnati Gas & Electric Company Booster Station,Explosives,0,0,"3/18/1970: Unknown perpetrators detonated a bomb at a booster station of the Cincinnati Gas & Electric Company in Lockland, Ohio, United States.  There were no casualties but the transformer sustained extensive damage."
197003000000.0,1970-03-20,United States,North America,Portland,45.511795,-122.675629,Bombing/Explosion,,Military,,,Military Recruiting Station/Academy,,,White extremists,,,,False,False,False,Protest the Vietnam War and sabotage the US Army,United States Army Reserve Training Center in Portland Oregon,Incendiary,0,0,"3/20/1970: Unknown perpetrators placed two firebombs at the United States Army Reserve Training Center in Portland, Oregon, United States.  One bomb ignited but burnt out before causing any damage and the other bomb was found and dismantled."
197003000000.0,1970-03-20,United States,North America,Detroit,42.331685,-83.047924,Assassination,,Private Citizens & Property,,,Named Civilian,,,White extremists,,,,True,False,False,To protest the civil rights movement,Burton I. Gordin,Firearms,1,0,"3/20/1970: Unknown perpetrators shot and killed Burton I. Gordin, the director of the Michigan Civil Rights Commission, in a downtown garage in Detroit, Michigan, United States.  Police suspected that this incident might have been politically motivated as no money was stolen from Gordin's wallet."
197003000000.0,1970-03-21,United States,North America,Washington,38.908642,-77.015381,Bombing/Explosion,,Government (General),,,Head of State,,,Left-Wing Militants,,,,False,False,False,To protest against the draft.,President Richard Nixon,Explosives,0,0,"3/21/1970: In a series of related incidents, a letter bomb protesting the draft was sent to President Richard Nixon in Washington D.C., United States.  The bomb was intercepted and dismantled."
197003000000.0,1970-03-21,United States,North America,New York City,40.697132,-73.931351,Facility/Infrastructure Attack,,Business,,,Retail/Grocery/Bakery,,,Puerto Rican Resistance Movement,,,,True,False,False,Promote Puerto Rican Independence,Bloomingdale's Department Store,Incendiary,0,0,"3/21/1970: In a series of related attacks, a group called Puerto Rican Resistance claimed credit for an incendiary device that ignited at Bloomingdale's Department Store in Manhattan, New York, United States.  There were no casualties but the firebomb caused minor damage."
197003000000.0,1970-03-21,United States,North America,New York City,40.697132,-73.931351,Facility/Infrastructure Attack,,Business,,,Retail/Grocery/Bakery,,,Puerto Rican Resistance Movement,,,,True,False,False,Promote Puerto Rican Independence,Alexander's Department Store,Incendiary,0,1,"3/21/1970: In a series of related attacks, a group called Puerto Rican Resistance claimed credit for two incendiary devices that ignited at Alexander's Department Store in Manhattan, New York, United States.  One person was injured but the firebomb caused minor damage."
197003000000.0,1970-03-22,United States,North America,New York City,40.697132,-73.931351,Bombing/Explosion,,Business,,,Bank/Commerce,,,Black Panthers,,,,True,False,False,Revolutionary movement against the financial establishment,"Nagler, Weissman & Company",Explosives,0,0,"3/22/1970: In a series of related attacks, a member of the Black Panther Party detonated a pipe bomb at the brokerage firm Nagler, Weissman & Co. in the Bronx, New York, United States.  There were no casualties but the door and windows of the building were damaged."
197003000000.0,1970-03-22,United States,North America,New York City,40.697132,-73.931351,Bombing/Explosion,,Business,,,Bank/Commerce,,,Black Panthers,,,,False,False,False,Revolutionary movement against the financial establishment,"Chase-Manhattan Bank, Bronx branch",Explosives,0,0,"3/22/1970: In a series of related attacks, a member of the Black Panther Party placed a pipe bomb on the window ledge of Chase-Manhattan Bank in the Bronx, New York, United States.  Police discovered and disarmed the time bomb."
197003000000.0,1970-03-22,United States,North America,New York City,40.697132,-73.931351,Bombing/Explosion,,Business,,,Entertainment/Cultural/Stadium/Casino,,,Black Panthers,,,,True,False,False,,Electric  Circus,Explosives,0,17,"3/22/1970: In a series of related attacks, a suspected member of the Black Panther Party detonated a pipe bomb at the Electric Circus Discotheque in Manhattan New York, United States.  Seventeen people were injured and the building sustained minor damages."
197003000000.0,1970-03-23,United States,North America,Orlando,28.538235,-81.377389,Bombing/Explosion,,Private Citizens & Property,,,Labor Union Related,,,Strikers,,,,True,False,False,,Local 1765 Orlando Headquarters,Explosives,0,0,"3/23/1970: Unknown perpetrators detonated a bomb that destroyed the local headquarters of the United Brotherhood of Carpenters and Joiners union in Orlando, Florida, United States.  There were no causalities."
197003000000.0,1970-03-24,Philippines,Southeast Asia,Angeles,15.153002,120.591942,Unknown,,Military,,,"Military Personnel (soldiers, troops, officers, forces)",,,Unknown,,,,True,False,False,,officer,Unknown,1,0,
197003000000.0,1970-03-24,Dominican Republic,Central America & Caribbean,Santo Domingo,18.456792,-69.951164,Hostage Taking (Kidnapping),,Military,,,"Military Personnel (soldiers, troops, officers, forces)",,,Dominican Popular Movement (MPD),,,,True,False,True,,"Lt. Col. Donal J. Crowley, U.S. Air attache",Unknown,0,0,
197003000000.0,1970-03-24,Argentina,South America,Ituzaingo,-27.583246,-56.683334,Hostage Taking (Kidnapping),,Government (Diplomatic),,,"Diplomatic Personnel (outside of embassy, consulate)",,,Argentine Liberation Front (FAL),,,,True,False,True,,"Waldemar Sanchez, paraguayan consul, Buenos Aires",Unknown,0,0,
197003000000.0,1970-03-24,United States,North America,New York City,40.697132,-73.931351,Bombing/Explosion,,Business,,,Restaurant/Bar/Caf,,,Unknown,,,,True,False,False,,Joe's Restaurant,Explosives,0,0,"3/24/1970: Unknown perpetrators tossed a bomb through the window of Joe's Restaurant in Manhattan, New York, United States after it closed.  There were no casualties, however, windows and furniture were damaged."
197003000000.0,1970-03-24,United States,North America,Cleveland,41.479561,-81.675461,Bombing/Explosion,,Private Citizens & Property,,,Museum/Cultural Center/Cultural House,,,White extremists,,,,True,False,False,Suspected motive was to protest the Vietnam War.,The Thinker statue,Explosives,0,0,"3/24/1970: Unknown perpetrators detonated a pipe bomb at Auguste Rodin's Thinker statue that was located in front of the Cleveland Museum of Art in Ohio, United States.  There were no casualties, however, the statue was irrevocably damaged."
197003000000.0,1970-03-24,United States,North America,Richmond,37.93781,-122.342709,Bombing/Explosion,,Police,,,Police Security Forces/Officers,,,Black Nationalists,,,,True,False,False,,House of Police Officer,Explosives,0,0,"3/24/1970: Unknown perpetrators detonated a bomb outside of the home of a police officer in Richmond, California, United States.  There were no casualties, but the house sustained minor damages."
197003000000.0,1970-03-27,United States,North America,San Francisco,37.755363,-122.443352,Bombing/Explosion,,Police,Business,,Police Security Forces/Officers,Restaurant/Bar/Caf,,Black Nationalists,,,,True,False,False,,San Francisco Police Officers frequenting Trovatore Tavern,Explosives,0,0,"3/27/1970: Unknown perpetrators detonated a bomb at the Trovatore Tavern in San Francisco, California, United States.  The Tavern was across the street from the Hall of Justice and frequented by police officers.  There were no casualties, however, the building sustained $5,000 in damages."
197003000000.0,1970-03-29,Argentina,South America,Buenos Aires,-34.61768,-58.444435,Hostage Taking (Kidnapping),,Government (Diplomatic),,,"Diplomatic Personnel (outside of embassy, consulate)",,,Argentine National Organization Movement (MANO),,,,True,False,False,,"Yuri Pivovarov, commercial attache",Unknown,0,0,
197003000000.0,1970-03-29,Lebanon,Middle East & North Africa,Beirut,33.888523,35.503513,Bombing/Explosion,,Government (Diplomatic),,,Embassy/Consulate,,,Popular Front for the Liberation of Palestine (PFLP),,,,True,False,False,,U.S. Embassy,Explosives,0,0,
197003000000.0,1970-03-30,United States,North America,Biggsville,40.85122,-90.864369,Facility/Infrastructure Attack,,Government (General),,,Government Building/Facility/Office,,,Left-Wing Militants,,,,True,False,False,Protest and sabotage the draft,Selective Service office in Biggsville Illinois,Incendiary,0,0,"3/30/1970: Unknown perpetrators set fire to the Old State Bank of Biggsville building which housed the Selective Service Offices in Biggsville, Illinois, United States.  There were no casualties but the building and draft records were destroyed causing an estimated $10,500 in damages."
197003000000.0,1970-03-30,United States,North America,Fort Benning,32.3575,-84.95623,Facility/Infrastructure Attack,,Military,,,Military Barracks/Base/Headquarters/Checkpost,,,Left-Wing Militants,,,,True,False,False,To protest the trial of Lt. William Calley and show sympathy for the defendant,"Military courthouse, Fort Benning Georgia",Incendiary,0,0,"3/30/1971: A United States soldier threw a firebomb at the military courthouse in Fort Benning, Georgia, United States where the trial of Lt. William Calley was taking place.  Lt. William Calley was on trial for his involvement in the My Lai Massacre.  It is unknown if the attack was successful."
197003000000.0,1970-03-31,Guatemala,Central America & Caribbean,Guatemala City,14.622869,-90.529068,Hostage Taking (Kidnapping),,Government (Diplomatic),,,"Diplomatic Personnel (outside of embassy, consulate)",,,Rebel Armed Forces of Guatemala (FAR),,,,True,False,True,,"Count Karl Von Spreti, ambassador to Guatemala",Unknown,1,0,
197003000000.0,1970-03-31,Japan,East Asia,Fukouka,33.580412,130.396361,Hijacking,,Airports & Aircraft,,,Aircraft (not at an airport),,,Japanese Red Army (JRA),,,,True,False,True,,Boeing 727,Explosives,0,0,
197003000000.0,1970-03-31,United States,North America,Washington,38.908642,-77.015381,Bombing/Explosion,,Government (General),,,"Government Personnel (excluding police, military)",,,Left-Wing Militants,,,,False,False,False,To protest against the draft.,Curtis W. Tarr,Explosives,0,0,"3/31/1970: In a series of related incidents, a letter bomb protesting the draft was sent to Curtis W. Tarr, the head of the Selective Services in Washington D.C., United States.  The bomb was intercepted and dismantled."
197003000000.0,1970-03-31,United States,North America,Seattle,47.610786,-122.331306,Bombing/Explosion,,Educational Institution,,,School/University/Educational Building,,,Student Radicals,,,,True,False,False,,Jeeps owned by the University of Washington,Explosives,0,0,"3/31/1970: Unknown perpetrators bombed two jeeps owned by the University of Washington parked at the Seattle campus in Washington, United States.  There were no casualties, but the vehicles sustained major damages."
197004000000.0,,Ethiopia,Sub-Saharan Africa,Unknown,,,Hostage Taking (Kidnapping),,Government (Diplomatic),,,"Diplomatic Personnel (outside of embassy, consulate)",,,Eritrean Liberation Front,,,,True,False,True,,"Jack Fry, peace corps official",Unknown,0,0,
197004000000.0,1970-04-01,United States,North America,East Lansing,42.7375,-84.483779,Bombing/Explosion,,Educational Institution,,,School/University/Educational Building,,,Student Radicals,,,,True,False,False,Protest racism and promote a leftist revolution,Michigan State University administration building,Explosives,0,0,"4/1/1970: Unknown perpetrators bombed the administration building at Michigan State University in East Lansing, Michigan, United States.  There were no casualties but the building sustained $500 in damages."
197004000000.0,1970-04-01,United States,North America,Ithaca,42.455233,-76.475847,Facility/Infrastructure Attack,,Educational Institution,,,School/University/Educational Building,,,White extremists,,,,True,False,False,To intimidate the African American community at Cornell University,Building housing Africana Studies and Research Center,Incendiary,0,0,"4/1/1970: Unknown perpetrators started a fire at the building that houses the Africana Studies and Research Center at Cornell University in Ithaca, New York, United States.  There were no casualties but the building sustained an estimated $100,000 in damages."
197004000000.0,1970-04-01,United States,North America,Houston,29.813822,-95.365295,Facility/Infrastructure Attack,,Military,,,Military Recruiting Station/Academy,,,Student Radicals,,,,True,False,False,Protest the Vietnam War and the R.O.T.C.,Naval R.O.T.C. at Rice University,Incendiary,0,0,"4/1/1970: Unknown perpetrators set a kerosene fire to the Naval R.O.T.C. building at Rice University in Houston, Texas, United States.  There were no casualties but a hole was burned through one side of the building."
197004000000.0,1970-04-02,Philippines,Southeast Asia,Mabalacat City,15.185916,120.54187,Unknown,,Military,,,"Military Personnel (soldiers, troops, officers, forces)",,,New People's Army (NPA),,,,True,False,False,,Airmen,Unknown,2,0,
197004000000.0,1970-04-02,United States,North America,New York City,40.697132,-73.931351,Bombing/Explosion,,Business,,,Bank/Commerce,,,Left-Wing Militants,,,,False,False,False,Revolutionary movement against the financial establishment,"Chase-Manhattan Bank, Bronx branch",Explosives,0,0,"4/2/1970: Unknowns perpetrator placed a pipe bomb in a vestibule of Chase Manhattan Bank in the Bronx, New York, United States.  The bomb was discovered and subsequently dismantled by the police."
197004000000.0,1970-04-03,Ireland,Western Europe,Dublin,53.361675,-6.245485,Armed Assault,,Business,,,Bank/Commerce,,,Saor Eire (Irish Republican Group),,,,True,False,False,,"Richard Fallon, 42, Garda Siochana",Firearms,1,0,
197004000000.0,1970-04-04,United States,North America,New York City,40.697132,-73.931351,Bombing/Explosion,,Business,,,Bank/Commerce,,,Left-Wing Militants,,,,False,False,False,Revolutionary movement against the financial establishment,"Banco de Ponce, Bronx Branch",Explosives,0,0,"4/4/1970: In a series of related attacks that failed, unknown perpetrators placed a pipe bomb at the Banco de Ponce in Manhattan, New York, United States.  The bomb was discovered and subsequently disarmed."
197004000000.0,1970-04-04,United States,North America,New York City,40.697132,-73.931351,Bombing/Explosion,,Private Citizens & Property,,,"Public Area (garden, parking lot, garage, beach, public building, camp)",,,Left-Wing Militants,,,,False,False,False,,135th Street and Brook Avenues,Explosives,0,0,"4/4/1970: In a series of related attacks that failed, unknown perpetrators placed a pipe bomb at a busy intersection in the Bronx, New York, United States.  The bomb was discovered and subsequently disarmed."
197004000000.0,1970-04-04,United States,North America,Pullman,46.731958,-117.162603,Facility/Infrastructure Attack,,Educational Institution,,,School/University/Educational Building,,,Student Radicals,,,,True,False,False,,Rogers Field Stadium,Incendiary,0,0,"4/4/1970: Unknown perpetrators set a fire at Rogers Field Stadium at Washington State University in Pullman, Washington, United States.  There were no casualties, but the stadium sustained $700,000 in damages."
197004000000.0,1970-04-05,Brazil,South America,Porto Alegre,-30.034108,-51.217839,Hostage Taking (Kidnapping),,Government (Diplomatic),,,"Diplomatic Personnel (outside of embassy, consulate)",,,Popular Revolutionary Vanguard (VPR),,,,False,False,False,,"Curtis C. Cutter, U.S. consul, Porto Alegre",Unknown,0,1,
197004000000.0,1970-04-05,Argentina,South America,Buenos Aires,-34.61768,-58.444435,Armed Assault,,Military,,,Military Barracks/Base/Headquarters/Checkpost,,,Argentine Liberation Front (FAL),,,,True,False,False,,HQ. Patricios Infantry Regiment,Firearms,0,0,
197004000000.0,1970-04-05,United States,North America,Trona,35.76625,-117.370674,Bombing/Explosion,,Utilities,,,Electricity,,,Strikers,,,,True,False,False,,Power line pole,Explosives,0,0,"4/5/1970: In a series of two incidents that were possibly related, unknown perpetrators bombed a power line pole supplying electrical power to a pumping station in Trona, California, United States.  There were no casualties but the power line pole was destroyed.  At the time, the American Potash Plant of Trona was the scene of a major workers strike."
197004000000.0,1970-04-05,United States,North America,Trona,35.76625,-117.370674,Facility/Infrastructure Attack,,Business,,,Industrial/Textiles/Factory,,,Strikers,,,,True,False,False,,Barracks of American Potash and Chemical Company,Incendiary,0,0,"4/5/1970: In a series of two incidents that were possibly related, unknown perpetrators set fire to barracks owned by the American Potash and Chemical Company in Trona, California, United States.  There were no casualties but the barracks were damaged.  At the time, the American Potash Plant of Trona was the scene of a major workers strike."
197004000000.0,1970-04-05,United States,North America,New York City,40.697132,-73.931351,Bombing/Explosion,,NGO,,,International NGO,,,Unknown,,,,False,False,False,,West Side Branch of Young Women's Christian Association in Manhattan New York,Explosives,0,0,"4/5/1970: Unknown perpetrators placed a bomb at the Young Women's Christian Association in Manhattan, New York, United States.  The bomb was discovered and subsequently disarmed."
197004000000.0,1970-04-05,United States,North America,Houston,29.813822,-95.365295,Facility/Infrastructure Attack,,Educational Institution,,,School/University/Educational Building,,,Student Radicals,,,,True,False,False,,"Office of dean of students, Rice University",Incendiary,0,0,"4/5/1970: Unknown perpetrators set fire to the office of the dean of students at Rice University in Houston, Texas, United States.  There were no casualties but the office sustained an estimated $50,000 in damages.  Student records were also destroyed."
197004000000.0,1970-04-08,United States,North America,Lawrence,38.973065,-95.236534,Bombing/Explosion,,Business,,,Bank/Commerce,,,Unknown,,,,True,False,False,,"Anchor Savings & Loan, Lawrence Kansas",Explosives,0,0,"4/8/1970: Unknown perpetrators bombed the building of Anchor Savings & Loan in Lawrence, Kansas, United States.  There were no casualties but two windows were shattered."
197004000000.0,1970-04-08,United States,North America,Baxter Springs,37.023676,-94.735504,Bombing/Explosion,,Private Citizens & Property,,,Unnamed Civilian/Unspecified,,,Strikers,,,,True,False,False,Protest the strike,Individual at strike bound company,Explosives,0,0,"4/8/1970: Unknown perpetrators bombed the car of a person working at a strike bound company in Baxter, Kansas, United States.  There were no casualties but the car was damaged."
197004000000.0,1970-04-08,United States,North America,Los Angeles,34.097866,-118.407379,Facility/Infrastructure Attack,,Educational Institution,,,School/University/Educational Building,,,Chicano Liberation Front,,,,True,False,False,To protest the poor quality of education at a school district made up primarily of Mexican-Americans.,"Administration building, Roosevelt High School",Incendiary,0,0,"4/8/1970: Suspected members of the Chicano Liberation Front set fire to the administration building at Roosevelt High School in Los Angeles, California, United States.  There were no casualties but the building sustained over $100,000 in damages."
197004000000.0,1970-04-09,United States,North America,East St. Louis,38.624421,-90.150603,Bombing/Explosion,,Business,,,Industrial/Textiles/Factory,,,Unknown,,,,True,False,False,Protest non-local companies from working in East St. Louis,Large shovel crane,Explosives,0,0,"4/9/1970: Unknown assailants bombed a shovel crane belonging to the Waggoner Equipment Rental & Excavating Company in East St. Louis, Illinois, United States.  There were no casualties but the crane sustained an estimated $30,000 in damages.  The perpetrators were protesting outside companies that worked on construction projects in East St. Louis."
197004000000.0,1970-04-11,United States,North America,San Diego,32.715695,-117.161719,Bombing/Explosion,,Military,,,Military Barracks/Base/Headquarters/Checkpost,,,Left-Wing Militants,,,,True,False,False,Protest the Vietnam War,Imperial Beach Naval Air Station,Explosives,0,0,"4/11/1970: Unknown perpetrators bombed the barracks at the Imperial Beach Naval Air Station in San Diego, California, United States.  There were no casualties but the barracks building was damaged."
197004000000.0,1970-04-11,United States,North America,Ithaca,42.455233,-76.475847,Facility/Infrastructure Attack,,Educational Institution,Private Citizens & Property,,School/University/Educational Building,Student,,Student Radicals,,,,True,False,False,To destabilize Cornell University,"Olin Library, McGraw Hall, and Morrill Hall",Incendiary,0,0,"4/11/1970: Two unknown individuals threw Molotov cocktails into the Olin Library, McGraw Hall, Morrill Hall, and Psi Upsilon fraternity at Cornell University in Ithaca, New York, United States.  Only two of the Molotov cocktails ignited and caused minor damage.  There were no casualties."
197004000000.0,1970-04-11,United States,North America,Freeport,28.949564,-95.344371,Facility/Infrastructure Attack,,Business,,,Industrial/Textiles/Factory,,,Unknown,,,,True,False,False,,"Dow Chemical Company plant, Freeport Texas",Incendiary,0,5,"4/11/1970: Unknown perpetrators firebombed a storage tank at the Dow Chemical Company located north of Freeport, Texas, United States.  Five people received minor injuries from flying glass and an estimated $250,000 in damages was caused to the facilities."
197004000000.0,1970-04-13,United States,North America,Berkeley,37.874043,-122.280022,Bombing/Explosion,,Utilities,,,Electricity,,,New World Liberation Front (NWLF),,,,True,False,False,,High woltage power line,Explosives,0,0,
197004000000.0,1970-04-13,United States,North America,Kansas City,39.176086,-94.574127,Bombing/Explosion,,Educational Institution,,,School/University/Educational Building,,,Unknown,,,,True,False,False,,,Explosives,0,0,"4/13/1970: In a series of related attacks, unknown perpetrators bombed East High School in Kansas City, Missouri, United States.  There were no casualties but the building sustained minor damage."
197004000000.0,1970-04-13,United States,North America,Kansas City,39.176086,-94.574127,Bombing/Explosion,,Religious Figures/Institutions,,,Place of Worship,,,Unknown,,,,True,False,False,,"Linwood Methodist Church, Kansas City",Explosives,0,0,"4/13/1970: In a series of related attacks, unknown perpetrators bombed Linwood Methodist Church in Kansas City, Missouri, United States.  There were no casualties but the building sustained minor damage."
197004000000.0,1970-04-13,United States,North America,Kansas City,39.176086,-94.574127,Bombing/Explosion,,Police,,,"Police Building (headquarters, station, school)",,,Unknown,,,,True,False,False,,Kansas City Police Academy,Explosives,0,0,"4/13/1970: In a series of related attacks, unknown perpetrators bombed the Police Academy of Kansas City, Missouri, United States.  There were no casualties but the windows of the Police Academy and surrounding buildings were shattered."
197004000000.0,1970-04-14,United States,North America,Trona,35.76625,-117.370674,Bombing/Explosion,,Business,,,Industrial/Textiles/Factory,,,Strikers,,,,True,False,False,,"American Potash Plant, Trona California",Explosives,0,0,"4/14/1970: Unknown perpetrators bombed a sewer leading from the American Potash Plant in Trona, California, United States.  There were no casualties but a substantial part of the sewer was destroyed.  At the time, the American Potash Plant of Trona was the scene of a major workers strike."
197004000000.0,1970-04-14,United States,North America,Long Beach,33.783824,-118.11409,Bombing/Explosion,,Educational Institution,,,School/University/Educational Building,,,Student Radicals,,,,False,False,False,,Science Building,Explosives,0,0,"4/14/1970: Unknown perpetrators placed a pipe bomb in the Science Building at California State University, Long Beach, United States.  The bomb was discovered and subsequently disarmed."
197004000000.0,1970-04-14,United States,North America,Los Angeles,34.097866,-118.407379,Bombing/Explosion,Facility/Infrastructure Attack,Business,,,Retail/Grocery/Bakery,,,Unknown,,,,False,False,False,,"May Company Department Store, Los Angeles",Explosives,0,0,"4/14/1970: Unknown perpetrators placed a stick of dynamite, kerosene, a cloth rag, matches, and a cigarette explosive device at the May Company Department Store in Los Angeles, California, United States.  The weapons were discovered and removed by security officials."
197004000000.0,1970-04-15,Jordan,Middle East & North Africa,Amman,31.950001,35.933331,Bombing/Explosion,,Government (Diplomatic),,,Embassy/Consulate,,,Popular Front for the Liberation of Palestine (PFLP),,,,True,False,False,,US Embassy,Explosives,0,0,
197004000000.0,1970-04-15,United States,North America,Los Angeles,34.097866,-118.407379,Facility/Infrastructure Attack,,Private Citizens & Property,,,Political Party Member/Rally,,,Cuban Exiles,,,,True,False,False,Intimidate pro-Castro sympathizers and protest Fidel Castro's government.,Building owned by pro-Castro sympathizers,Incendiary,0,0,"4/15/1970: Four Cuban refugees firebombed a building in Los Angeles, California, United States, occupied by pro-Castro sympathizers.  There were no casualties but the building was damaged."
197004000000.0,1970-04-15,United States,North America,Los Angeles,34.097866,-118.407379,Facility/Infrastructure Attack,,Educational Institution,,,School/University/Educational Building,,,Chicano Liberation Front,,,,True,False,False,To protest the poor quality of education at a school district made up primarily of Mexican-Americans.,"Board of Education administration building, Los Angeles",Incendiary,0,0,"4/15/1970: In a series of related attacks, suspected members of the Chicano Liberation Front set fire to the Board of Education administration building in Los Angeles, California, United States.  There were no casualties but the building sustained $75,000 in damages."
197004000000.0,1970-04-15,United States,North America,Los Angeles,34.097866,-118.407379,Facility/Infrastructure Attack,,Educational Institution,,,School/University/Educational Building,,,Chicano Liberation Front,,,,True,False,False,To protest the poor quality of education at a school district made up primarily of Mexican-Americans.,"Storage structure, Roosevelt High School",Incendiary,0,0,"4/15/1970: In a series of related attacks, suspected members of the Chicano Liberation Front set fire to a storage structure at Roosevelt High School in Los Angeles, California, United States.  There were no casualties but the school sustained $20,000 in damages."
197004000000.0,1970-04-16,United States,North America,Kansas City,39.176086,-94.574127,Bombing/Explosion,,Business,,,Restaurant/Bar/Caf,,,Unknown,,,,True,False,False,,Plaza III Restaurant,Explosives,0,0,"4/16/1970: In a series of related attacks, unknown perpetrators bombed the Plaza III Restaurant in Kansas City, Missouri, United States.  There were no casualties but the blast blew a hole through the ceiling of the restaurant."
197004000000.0,1970-04-16,United States,North America,Kansas City,39.176086,-94.574127,Bombing/Explosion,,Private Citizens & Property,,,"Public Area (garden, parking lot, garage, beach, public building, camp)",,,Unknown,,,,True,False,False,,Waltower Building,Explosives,0,0,"4/16/1970: In a series of related attacks, unknown perpetrators bombed the Waltower Building in Kansas City, Missouri, United States.  There were no casualties but the building sustained extensive damages."
197004000000.0,1970-04-16,United States,North America,Kansas City,39.176086,-94.574127,Bombing/Explosion,,Private Citizens & Property,,,"Public Area (garden, parking lot, garage, beach, public building, camp)",,,Unknown,,,,True,False,False,,Argyle Building,Explosives,0,0,"4/16/1970: In a series of related attacks, unknown perpetrators bombed the Argyle Building in Kansas City, Missouri, United States.  There were no casualties but the building was damaged."
197004000000.0,1970-04-16,United States,North America,Trona,35.76625,-117.370674,Bombing/Explosion,,Business,,,Industrial/Textiles/Factory,,,Strikers,,,,True,False,False,,"American Potash Plant, Trona California",Explosives,0,0,"4/16/1970: Unknown perpetrators bombed railroad tracks leading to the American Potash Plant in Trona, California, United States.  There were no casualties but the tracks were partially damaged.  At the time, the American Potash Plant of Trona was the scene of a major workers strike."
197004000000.0,1970-04-17,United States,North America,Oakland,37.791927,-122.225906,Armed Assault,Bombing/Explosion,Police,,,Police Patrol (including vehicles and convoys),,,Black Panthers,,,,True,False,False,To kill police,Oakland Police Paddy Wagon,Firearms,0,2,"4/17/1970: Suspected members of the Black Panther Party ambushed a police paddy wagon carrying two police officers and four prisoners in Oakland, California, United States.  Both police officers were critically wounded.  In the ensuing car chase, the perpetrators threw fragmentation grenades at police vehicles causing major damage.  Two of the assailants were eventually captured."
197004000000.0,1970-04-19,United States,North America,Seattle,47.610786,-122.331306,Bombing/Explosion,,Religious Figures/Institutions,,,Place of Worship,,,White extremists,,,,True,False,False,To intimidate/show dissatisfaction with White sympathizers of the African American cause.,Japanese Presbyterian Church,Explosives,0,0,"4/19/1970: In a simultaneous bombing campaign, suspected White Racists detonated an explosive device at the Japanese Presbyterian Church in Seattle, Washington, United States.  There were no casualties and the church sustained $2,000 in damages."
197004000000.0,1970-04-19,United States,North America,Seattle,47.610786,-122.331306,Bombing/Explosion,,Business,,,,,,White extremists,,,,True,False,False,To intimidate/show dissatisfaction with White sympathizers of the African American cause.,Hardcastle Realty,Explosives,0,0,"4/19/1970: In a simultaneous bombing campaign, suspected White Racists detonated an explosive device at Hard Castle Realty, a real estate office that employed African Americans in Seattle, Washington, United States.  There were no casualties and the office sustained $4,000 in damages."
197004000000.0,1970-04-19,United States,North America,Seattle,47.610786,-122.331306,Bombing/Explosion,,Business,,,Restaurant/Bar/Caf,,,White extremists,,,,True,False,False,To intimidate/show dissatisfaction with White sympathizers of the African American cause.,Drive-in Hamburger Restaurant,Explosives,0,0,"4/19/1970: In a simultaneous bombing campaign, suspected White Racists detonated an explosive device at a restaurant that was constructed by African Americans in Seattle, Washington, United States.  There were no casualties and the restaurant sustained around $2,000 in damages."
197004000000.0,1970-04-19,United States,North America,Seattle,47.610786,-122.331306,Bombing/Explosion,,Government (General),,,Politician or Political Party Movement/Meeting/Rally,,,White extremists,,,,True,False,False,To intimidate/show dissatisfaction with White sympathizers of the African American cause.,David G. Sprague,Explosives,0,0,"4/19/1970: In a simultaneous bombing campaign, suspected White Racists detonated an explosive device at the house of State Legislator David G. Sprague in Seattle, Washington, United States.  There were no casualties and the house sustained $1,000 in damages."
197004000000.0,1970-04-19,United States,North America,New York City,40.697132,-73.931351,Bombing/Explosion,,Police,,,Police Patrol (including vehicles and convoys),,,Black Nationalists,,,,False,False,False,To coerce the government to free the Panther 21 from prison.,Corrections Officer's Car,Explosives,0,3,"4/19/1970: Unknown perpetrators placed a pipe bomb in a corrections officer's car parked outside of the House of Detention in Queens, New York, United States, where ten Black Panthers members were held.  The bomb failed to explode and was discovered  after an unknown individual phoned the police stating ""we're going to blow up the jail in a half hour.  Free the Panther 21."""
